City_ID,City,Lat,Lng,Max Temp,Humidity,Cloudiness,Wind Speed,Country,Date
0,bubaque,11.2833,-15.8333,24.68,68,35,8.17,GW,1678058261
1,kirakira,-10.4544,161.9205,28.97,72,84,5.0,SB,1678058223
2,seddon,-37.8068,144.8916,19.56,62,40,7.2,AU,1678058261
3,qaanaaq,77.484,-69.3632,-3.36,72,100,2.04,GL,1678058085
4,cairns,-16.9167,145.7667,25.04,100,100,1.54,AU,1678058045
5,new norfolk,-42.7826,147.0587,18.82,68,86,1.79,AU,1678058262
6,baglan,36.1307,68.7083,15.45,44,73,0.91,AF,1678058262
7,mahebourg,-20.4081,57.7,24.16,100,75,0.0,MU,1678058262
8,rikitea,-23.1203,-134.9692,26.67,73,100,9.79,PF,1678058263
9,sikonge,-5.6333,32.7667,18.2,93,100,1.19,TZ,1678058264
10,pangnirtung,66.1451,-65.7125,-2.0,100,75,25.72,CA,1678058264
11,punta arenas,-53.15,-70.9167,9.06,66,75,7.2,CL,1678058067
12,bredasdorp,-34.5322,20.0403,18.77,84,99,5.05,ZA,1678058265
13,castro,-24.7911,-50.0119,18.1,94,23,1.75,BR,1678058265
14,halifax,44.6453,-63.5724,2.61,53,55,3.58,CA,1678057832
15,barrow,71.2906,-156.7887,-12.99,78,100,10.8,US,1678058265
16,arroyo,41.6096,-4.7969,7.28,86,100,1.54,ES,1678058266
17,talara,-4.5772,-81.2719,27.42,65,40,2.57,PE,1678058266
18,luderitz,-26.6481,15.1594,16.71,91,0,4.64,NA,1678058267
19,hobart,-42.8794,147.3294,20.14,72,40,6.69,AU,1678058064
20,leningradskiy,69.3833,178.4167,-21.27,95,100,4.29,RU,1678058267
21,port lincoln,-34.7333,135.8667,17.63,70,54,7.5,AU,1678058144
22,bluff,-46.6,168.3333,16.0,62,31,1.99,NZ,1678058268
23,port alfred,-33.5906,26.891,17.88,97,76,8.5,ZA,1678058268
24,alta floresta,-9.8756,-56.0861,23.85,93,48,1.18,BR,1678058268
25,vanavara,60.34,102.2797,-31.25,100,90,0.97,RU,1678058269
26,otradnoye,59.7775,30.8181,-3.92,99,100,1.21,RU,1678058269
27,juneau,58.3019,-134.4197,-2.1,68,20,9.26,US,1678058169
28,lompoc,34.6391,-120.4579,13.23,76,0,3.6,US,1678058270
29,saint anthony,45.0205,-93.218,3.78,51,100,5.14,US,1678058270
30,half moon bay,37.4636,-122.4286,13.63,56,0,7.2,US,1678058270
31,mataura,-46.1927,168.8643,15.82,49,30,1.66,NZ,1678058271
32,cochrane,51.1834,-114.4687,-11.05,71,100,5.66,CA,1678058037
33,liuhe,42.2401,125.7172,1.62,74,100,3.69,CN,1678058271
34,kashi,39.4547,75.9797,9.56,31,0,5.0,CN,1678058271
35,cape town,-33.9258,18.4232,17.29,92,70,5.36,ZA,1678057694
36,srednekolymsk,67.45,153.6833,-36.68,97,68,1.59,RU,1678058272
37,chapleau,47.8405,-83.4034,2.05,32,0,1.54,CA,1678058272
38,meredith,43.6576,-71.5004,2.34,76,0,3.09,US,1678058273
39,port elizabeth,-33.918,25.5701,19.06,82,0,5.14,ZA,1678058273
40,tuatapere,-46.1333,167.6833,16.41,48,31,1.27,NZ,1678058273
41,rawson,-43.3002,-65.1023,26.98,30,0,6.15,AR,1678058274
42,albany,42.6001,-73.9662,4.17,74,90,0.89,US,1678058141
43,port hardy,50.6996,-127.4199,8.1,61,75,2.06,CA,1678058274
44,domoni,-12.2569,44.5319,26.49,85,89,4.63,KM,1678058274
45,cidreira,-30.1811,-50.2056,22.81,90,100,6.56,BR,1678058275
46,hermanus,-34.4187,19.2345,17.11,86,99,5.37,ZA,1678058275
47,torbay,47.6666,-52.7314,-3.06,75,75,3.09,CA,1678058276
48,victoria,22.2855,114.1577,17.96,64,0,3.58,HK,1678058135
49,atasu,48.6814,71.6433,-6.13,93,94,3.4,KZ,1678058156
50,vacaria,-28.5122,-50.9339,17.6,97,39,3.23,BR,1678058201
51,missoula,47.0166,-113.8009,-4.78,64,100,2.62,US,1678058223
52,magrath,49.4167,-112.8686,-9.89,92,100,5.14,CA,1678058276
53,ushuaia,-54.8,-68.3,4.81,93,75,3.6,AR,1678058277
54,yellowknife,62.456,-114.3525,-23.58,58,20,3.09,CA,1678058278
55,vao,-22.6667,167.4833,24.42,69,83,7.39,NC,1678058278
56,kapaa,22.0752,-159.319,25.99,82,75,6.69,US,1678058278
57,mar del plata,-38.0023,-57.5575,24.35,90,0,4.12,AR,1678058279
58,nouadhibou,20.931,-17.0347,20.99,56,41,6.69,MR,1678058279
59,barcelona,41.3888,2.159,12.06,74,0,1.54,ES,1678058279
60,airai,-8.9266,125.4092,16.86,88,91,1.09,TL,1678058280
61,port blair,11.6667,92.75,25.61,70,0,3.34,IN,1678058280
62,east london,-33.0153,27.9116,22.34,88,46,7.46,ZA,1678058280
63,roald,62.5833,6.1333,0.42,100,75,3.09,NO,1678058281
64,hilo,19.7297,-155.09,26.85,78,20,4.63,US,1678058281
65,katsuura,35.1333,140.3,10.23,86,100,6.16,JP,1678058282
66,fare,-16.7,-151.0167,28.58,71,100,7.89,PF,1678058283
67,lebu,-37.6167,-73.65,16.52,90,4,3.67,CL,1678058051
68,vila franca do campo,37.7167,-25.4333,15.23,76,88,4.97,PT,1678058283
69,bambous virieux,-20.3428,57.7575,24.01,87,100,2.97,MU,1678058090
70,nikolskoye,59.7035,30.7861,-4.01,99,100,1.16,RU,1678058284
71,thompson,55.7435,-97.8558,-15.91,60,75,3.6,CA,1678058285
72,at-bashi,41.1702,75.8106,-9.27,67,94,1.3,KG,1678058285
73,provideniya,64.3833,-173.3,1.06,80,100,6.0,RU,1678058165
74,alcains,39.9164,-7.4566,8.29,98,99,0.74,PT,1678058286
75,saint-augustin,51.226,-58.6502,1.86,96,100,7.09,CA,1678058287
76,isla vista,34.4133,-119.861,14.41,81,100,3.6,US,1678058287
77,odweyne,9.4092,45.064,19.37,45,2,2.57,SO,1678058288
78,moree,-29.4667,149.85,26.88,47,15,8.23,AU,1678058288
79,ribeira grande,38.5167,-28.7,14.62,67,76,8.3,PT,1678058289
80,vardo,70.3705,31.1107,-12.01,67,95,7.72,NO,1678058241
81,guliston,40.4897,68.7842,15.31,38,100,2.0,UZ,1678058289
82,dukat,62.55,155.55,-26.26,97,26,0.28,RU,1678058290
83,beihai,21.4833,109.1,18.56,81,1,4.5,CN,1678058291
84,solnechnyy,50.7214,136.6319,-2.52,88,34,1.47,RU,1678058292
85,gallup,35.5281,-108.7426,11.91,23,0,10.29,US,1678058292
86,dubbo,-32.25,148.6167,29.07,32,0,9.77,AU,1678058293
87,hamirpur,25.95,80.15,20.58,38,11,2.22,IN,1678058294
88,vaini,-21.2,-175.2,27.09,89,100,5.66,TO,1678058294
89,hithadhoo,-0.6,73.0833,27.49,73,93,2.06,MV,1678058295
90,constitucion,-35.3333,-72.4167,16.31,81,27,4.49,CL,1678058295
91,jamestown,42.097,-79.2353,2.79,88,100,4.63,US,1678058273
92,kodiak,57.79,-152.4072,2.73,65,0,2.06,US,1678058296
93,lasa,46.6166,10.7002,3.9,85,40,0.98,IT,1678058297
94,husavik,66.0449,-17.3389,-3.71,65,100,8.22,IS,1678058297
95,thinadhoo,0.5333,72.9333,27.02,75,88,2.53,MV,1678058298
96,faanui,-16.4833,-151.75,28.64,72,93,7.98,PF,1678058298
97,lazaro cardenas,17.9583,-102.2,26.94,65,25,4.83,MX,1678058299
98,maracacume,-2.0428,-45.9592,23.98,97,99,2.05,BR,1678058299
99,guerrero negro,27.9769,-114.0611,15.68,61,99,8.88,MX,1678058265
100,lagoa vermelha,-28.2086,-51.5258,18.12,80,9,3.05,BR,1678058300
101,georgetown,5.4112,100.3354,24.97,83,20,4.63,MY,1678058254
102,vaitape,-16.5167,-151.75,28.61,72,94,7.99,PF,1678058301
103,atuona,-9.8,-139.0333,26.91,79,13,6.85,PF,1678058301
104,marabba,12.35,32.1833,30.81,20,1,4.11,SD,1678058302
105,pitanga,-24.7572,-51.7614,18.21,95,2,1.7,BR,1678058132
106,miri,4.4148,114.0089,24.08,100,40,1.54,MY,1678058303
107,keene,42.9337,-72.2781,3.57,79,100,2.06,US,1678058303
108,nelson bay,-32.7167,152.15,28.89,68,58,3.58,AU,1678058304
109,tasiilaq,65.6145,-37.6368,-3.91,85,38,1.96,GL,1678058305
110,souillac,-20.5167,57.5167,24.21,100,75,0.0,MU,1678058305
111,carbonia,39.1672,8.5222,6.67,85,3,0.11,IT,1678058306
112,busselton,-33.65,115.3333,14.49,85,3,3.26,AU,1678058034
113,raymond,43.9015,-70.4703,3.22,65,98,2.38,US,1678058307
114,codrington,-38.2667,141.9667,14.85,72,76,4.5,AU,1678058307
115,vila,42.0304,-8.1588,3.72,84,100,1.29,PT,1678058308
116,karaj,35.8355,51.0103,13.29,35,0,3.09,IR,1678058308
117,norman wells,65.282,-126.8329,-22.98,64,20,1.03,CA,1678058309
118,ust-kulom,61.6864,53.6902,-11.24,95,98,2.86,RU,1678058309
119,salalah,17.0151,54.0924,23.1,61,0,1.01,OM,1678058310
120,saskylakh,71.9167,114.0833,-25.61,98,100,3.14,RU,1678058311
121,labuhan,-6.8844,112.2051,24.91,86,100,3.27,ID,1678058311
122,padang,-0.9492,100.3543,24.57,86,100,1.81,ID,1678058311
123,huarmey,-10.0681,-78.1522,24.49,73,100,3.36,PE,1678058312
124,zhanaozen,43.3,52.8,7.06,72,92,3.93,KZ,1678058312
125,orocue,4.7912,-71.3354,33.03,37,100,1.99,CO,1678058313
126,lagoa,39.05,-27.9833,13.94,67,87,9.47,PT,1678058313
127,nemuro,43.3236,145.575,0.54,83,5,6.1,JP,1678058068
128,ilulissat,69.2167,-51.1,-2.99,74,75,0.0,GL,1678058314
129,mount darwin,-16.7725,31.5838,19.04,98,99,0.8,ZW,1678058315
130,lesogorsk,56.0458,99.5136,-14.06,99,100,1.34,RU,1678058315
131,jingdezhen,29.2947,117.2079,10.89,56,0,1.32,CN,1678058316
132,naryan-mar,67.6713,53.087,-18.08,99,100,3.35,RU,1678058316
133,fortuna,40.5982,-124.1573,9.51,55,75,4.12,US,1678058317
134,ust-kuyga,70.0167,135.6,-20.93,100,100,1.38,RU,1678058318
135,gizycko,54.0381,21.7644,-2.57,72,19,4.08,PL,1678058318
136,mount isa,-20.7333,139.5,25.87,78,91,4.63,AU,1678058182
137,karanja,20.4833,77.4833,24.54,30,22,1.73,IN,1678058319
138,dwarka,22.2394,68.9678,23.86,72,0,4.3,IN,1678058319
139,eunice,30.4944,-92.4176,26.67,55,0,1.42,US,1678058319
140,cravo norte,6.3017,-70.2041,33.8,34,73,1.33,CO,1678058320
141,mtwara,-10.2667,40.1833,26.07,79,100,4.35,TZ,1678058320
142,pevek,69.7008,170.3133,-34.37,100,100,4.06,RU,1678058171
143,sosnytsya,51.5239,32.4999,-2.38,76,95,3.19,UA,1678058321
144,bahia honda,22.9036,-83.1592,27.06,64,17,4.99,CU,1678058321
145,pauini,-7.7136,-66.9764,24.59,88,100,1.11,BR,1678058321
146,shenjiamen,29.9576,122.298,10.72,83,0,5.72,CN,1678058322
147,nara,34.6851,135.8049,6.09,59,0,0.19,JP,1678058322
148,tazovskiy,67.4667,78.7,-31.52,100,100,2.79,RU,1678058324
149,upernavik,72.7868,-56.1549,-4.41,75,79,1.56,GL,1678058091
150,yeppoon,-23.1333,150.7333,25.88,68,5,4.26,AU,1678058324
151,san bartolome de tirajana,27.9248,-15.5733,12.26,84,20,3.09,ES,1678058324
152,mogadishu,2.0371,45.3438,25.47,88,27,7.89,SO,1678058325
153,avarua,-21.2078,-159.775,29.03,84,75,8.23,CK,1678058325
154,shaoyang,27.2315,111.4525,13.69,50,6,0.36,CN,1678058326
155,ust-nera,64.5667,143.2,-28.65,98,97,1.34,RU,1678058326
156,dikson,73.5069,80.5464,-33.46,99,67,2.18,RU,1678058326
157,macaubas,-13.0194,-42.6986,27.92,33,68,1.56,BR,1678058327
158,tucuma,-0.1833,-50.05,24.79,92,98,3.09,BR,1678058327
159,poum,-20.2333,164.0167,26.32,77,32,3.28,NC,1678058328
160,leshukonskoye,64.8989,45.7622,-18.39,99,95,1.08,RU,1678058328
161,mount gambier,-37.8333,140.7667,16.33,63,86,4.36,AU,1678058079
162,northam,51.0333,-4.2167,6.45,79,78,3.02,GB,1678058329
163,panipat,29.3889,76.9681,15.97,39,0,3.25,IN,1678058329
164,sao filipe,14.8961,-24.4956,23.01,66,100,3.01,CV,1678058329
165,jodhpur,26.2867,73.03,21.86,32,1,3.54,IN,1678058330
166,bowen,-20.0167,148.2333,26.94,71,92,5.44,AU,1678058330
167,syke,52.9,8.8333,3.34,87,75,5.66,DE,1678058142
168,point pedro,9.8167,80.2333,25.98,72,82,5.44,LK,1678058331
169,ponta delgada,37.7333,-25.6667,15.4,67,20,5.66,PT,1678058331
170,saryg-sep,51.5,95.6,-7.94,95,100,1.33,RU,1678058332
171,goya,-29.14,-59.2626,27.77,45,0,3.14,AR,1678058332
172,san cristobal,7.7669,-72.225,26.1,66,48,1.28,VE,1678058332
173,alofi,-19.0595,-169.9187,29.94,79,75,4.63,NU,1678058333
174,butaritari,3.0707,172.7902,26.92,77,96,2.55,KI,1678058333
175,yaan,7.3833,8.5667,26.96,66,99,6.13,NG,1678058334
176,new glasgow,45.5834,-62.6486,-3.45,77,48,7.77,CA,1678058078
177,barberton,-25.7884,31.0532,21.21,98,68,0.29,ZA,1678058334
178,chiang klang,19.2938,100.8617,19.17,71,0,0.78,TH,1678058335
179,christchurch,-43.5333,172.6333,17.45,68,5,1.54,NZ,1678058143
180,tura,25.5198,90.2201,19.35,47,0,1.52,IN,1678058335
181,wembley,-31.9333,115.8,17.81,75,0,4.12,AU,1678058336
182,meulaboh,4.1363,96.1285,23.2,87,5,1.98,ID,1678058336
183,luba,3.4568,8.5547,27.94,83,55,2.93,GQ,1678058336
184,ayan,56.45,138.1667,-12.25,78,92,3.55,RU,1678058337
185,carutapera,-1.195,-46.02,24.94,91,100,3.1,BR,1678058337
186,talnakh,69.4865,88.3972,-26.0,97,100,2.9,RU,1678058337
187,westport,41.1415,-73.3579,9.38,54,75,3.09,US,1678058244
188,inirida,3.8653,-67.9239,25.89,88,98,0.15,CO,1678058338
189,mendoza,-32.8908,-68.8272,32.74,35,40,1.54,AR,1678058227
190,tuktoyaktuk,69.4541,-133.0374,-31.0,76,0,1.54,CA,1678058338
191,tiksi,71.6872,128.8694,-22.1,100,100,1.53,RU,1678058339
192,daru,-9.0763,143.2092,26.79,82,94,5.91,PG,1678058339
193,boyolangu,-8.1181,111.8935,23.75,91,100,1.35,ID,1678058339
194,marsa matruh,31.3525,27.2453,15.24,67,3,6.89,EG,1678058340
195,fairview,40.8126,-73.999,9.59,51,100,8.75,US,1678058340
196,ancud,-41.8697,-73.8203,15.62,94,62,6.57,CL,1678058341
197,bodden town,19.2833,-81.25,28.33,72,40,2.57,KY,1678058341
198,lolotique,13.55,-88.35,28.0,43,2,3.21,SV,1678058342
199,kerema,-7.9631,145.7785,27.24,74,99,1.7,PG,1678058342
200,esperance,-33.8667,121.9,18.21,65,95,5.12,AU,1678058342
201,zhangye,38.9342,100.4517,2.69,36,3,1.02,CN,1678058343
202,turukhansk,65.8167,87.9833,-19.96,98,100,2.62,RU,1678058343
203,hamilton,39.1834,-84.5333,14.41,47,0,4.12,US,1678058090
204,biltine,14.5333,20.9167,25.69,9,0,4.49,TD,1678058344
205,cherskiy,68.75,161.3,-33.31,96,98,2.88,RU,1678058344
206,flinders,-34.5833,150.8552,30.59,63,16,3.13,AU,1678058184
207,kandrian,-6.2167,149.55,27.13,81,99,1.24,PG,1678058345
208,puerto ayora,-0.7393,-90.3518,26.42,90,51,1.79,EC,1678058345
209,morant bay,17.8815,-76.4093,28.79,71,6,4.43,JM,1678058345
210,ambulu,-8.345,113.6058,24.11,92,100,1.79,ID,1678058346
211,stephenville,32.2207,-98.2023,26.2,30,0,6.17,US,1678058346
212,garowe,8.4054,48.4845,20.55,78,4,5.22,SO,1678058346
213,geraldton,-28.7667,114.6,17.23,82,0,4.63,AU,1678058347
214,coihaique,-45.5752,-72.0662,18.97,63,75,6.17,CL,1678058347
215,yar-sale,66.8333,70.8333,-29.74,100,95,2.8,RU,1678058348
216,mabaruma,8.2,-59.7833,23.96,81,52,2.41,GY,1678058348
217,hasaki,35.7333,140.8333,8.45,80,100,6.46,JP,1678058348
218,port augusta,-32.5,137.7667,18.65,60,4,1.98,AU,1678058349
219,kahului,20.8947,-156.47,26.65,76,40,3.6,US,1678058350
220,severo-kurilsk,50.6789,156.125,0.05,83,88,3.29,RU,1678058350
221,aklavik,68.2191,-135.0107,-21.16,88,6,4.3,CA,1678058141
222,nalut,30.3333,10.85,10.27,28,51,1.84,LY,1678058350
223,chalus,36.655,51.4204,11.7,94,100,0.0,IR,1678058351
224,lahij,13.1667,44.5833,21.61,59,4,1.73,YE,1678058351
225,bethel,41.3712,-73.414,8.3,59,75,2.57,US,1678058351
226,srivardhan,18.0333,73.0167,26.02,46,9,2.77,IN,1678058352
227,clyde river,70.4692,-68.5914,-14.87,72,0,4.12,CA,1678058352
228,svarstad,59.399,9.9698,-2.57,48,31,1.87,NO,1678058353
229,bendigo,-36.7667,144.2833,15.36,82,2,0.45,AU,1678058353
230,khatanga,71.9667,102.5,-22.67,98,100,4.05,RU,1678058353
231,kamuli,0.9472,33.1197,20.9,78,89,1.28,UG,1678058354
232,constantine,36.365,6.6147,5.67,56,0,2.06,DZ,1678058209
233,malakal,9.5334,31.6605,30.87,15,17,1.36,SS,1678058354
234,alexandria,31.2156,29.9553,16.56,63,0,6.22,EG,1678058114
235,mandiana,10.6333,-8.6833,29.42,46,81,0.72,GN,1678058291
236,rocha,-34.4833,-54.3333,19.9,82,0,4.22,UY,1678058355
237,alibag,18.6411,72.8792,29.04,55,32,1.89,IN,1678058355
238,harsud,22.1,76.7333,23.56,36,14,2.76,IN,1678058355
239,podgornoye,51.735,39.1496,-0.88,74,0,4.0,RU,1678058356
240,baykit,61.67,96.37,-26.03,100,100,0.5,RU,1678058356
241,sukhobezvodnoye,57.0491,44.8891,-6.56,96,97,2.96,RU,1678058356
242,cayenne,4.9333,-52.3333,27.02,83,75,4.12,GF,1678058153
243,burias,11.4463,122.5497,22.69,96,90,2.29,PH,1678058357
244,maniitsoq,65.4167,-52.9,-0.38,65,70,3.78,GL,1678058357
245,samarai,-10.6167,150.6667,27.97,71,99,2.57,PG,1678058358
246,vestmannaeyjar,63.4427,-20.2734,0.38,84,100,4.63,IS,1678058358
247,salinas,36.6777,-121.6555,13.13,57,75,6.17,US,1678058358
248,maragogi,-9.0122,-35.2225,26.78,72,86,4.48,BR,1678058359
249,horta,38.5333,-28.6333,13.97,69,76,8.14,PT,1678058359
250,deputatskiy,69.3,139.9,-25.12,98,100,0.62,RU,1678058360
251,grindavik,63.8424,-22.4338,-1.74,69,20,4.12,IS,1678058360
252,pahrump,36.2083,-115.9839,12.92,39,99,7.15,US,1678058191
253,lavrentiya,65.5833,-171.0,0.18,98,100,6.6,RU,1678058360
254,rorvik,64.8621,11.2373,-5.94,73,100,1.03,NO,1678058361
255,mansar,21.4,79.25,21.85,28,6,2.23,IN,1678058361
256,lucea,18.451,-78.1736,26.92,73,67,4.44,JM,1678058362
257,lensk,60.7253,114.9278,-16.37,91,100,4.51,RU,1678058362
258,saint-philippe,-21.3585,55.7679,24.77,87,100,2.11,RE,1678058362
259,port-gentil,-0.7193,8.7815,28.15,80,82,5.34,GA,1678058244
260,shaturtorf,55.5672,39.4169,-10.63,99,73,1.61,RU,1678058363
261,puerto escondido,15.85,-97.0667,29.46,65,0,4.63,MX,1678058364
262,ostersund,63.1792,14.6357,-7.99,86,40,2.06,SE,1678058364
263,aksu,41.1231,80.2644,6.36,40,8,1.94,CN,1678058364
264,naze,28.3667,129.4833,14.51,62,47,4.76,JP,1678058365
265,narsaq,60.9167,-46.05,10.12,69,4,4.74,GL,1678058289
266,batemans bay,-35.7167,150.1833,22.28,47,4,3.42,AU,1678058365
267,brae,60.3964,-1.353,0.92,96,100,10.47,GB,1678058365
268,sitka,57.0531,-135.33,-1.06,31,0,3.09,US,1678058366
269,trincomalee,8.5711,81.2335,26.3,77,70,5.13,LK,1678058366
270,mana,5.6592,-53.7767,24.87,86,82,5.32,GF,1678058367
271,raudeberg,61.9875,5.1352,-2.8,63,100,5.39,NO,1678058367
272,vilyuysk,63.7553,121.6247,-15.15,94,100,3.35,RU,1678058367
273,muli,2.9167,73.5667,27.06,76,98,4.43,MV,1678058305
274,xuddur,4.1213,43.8894,22.9,75,51,7.07,SO,1678058368
275,sorland,67.667,12.6934,-2.08,61,100,10.52,NO,1678058368
276,stornoway,58.2093,-6.3865,4.4,93,100,5.14,GB,1678058369
277,olhao,37.0286,-7.8411,13.38,89,20,2.06,PT,1678058369
278,cabo san lucas,22.8909,-109.9124,26.45,36,0,6.17,MX,1678058369
279,chara,56.9064,118.2631,-20.0,75,68,0.84,RU,1678058370
280,rio bueno,-40.3167,-72.9667,20.06,50,23,2.69,CL,1678058370
281,andros town,24.7,-77.7667,25.98,61,26,3.5,BS,1678058371
282,maceio,-9.6658,-35.7353,25.69,88,0,2.06,BR,1678058325
283,boa vista,2.8197,-60.6733,28.99,58,0,2.06,BR,1678058216
284,carnarvon,-24.8667,113.6333,24.83,64,1,8.15,AU,1678058371
285,saldanha,-33.0117,17.9442,18.06,86,42,8.54,ZA,1678058372
286,te anau,-45.4167,167.7167,15.82,51,25,0.32,NZ,1678058372
287,haines junction,60.7522,-137.5108,-13.6,81,87,0.47,CA,1678058126
288,saint george,37.1041,-113.5841,13.33,28,0,9.77,US,1678058372
289,fairbanks,64.8378,-147.7164,-6.21,56,75,0.0,US,1678058117
290,hervey bay,-25.2986,152.8535,24.63,69,40,2.89,AU,1678058373
291,erdenet,49.0333,104.0833,-10.43,99,70,2.28,MN,1678058373
292,moron,-34.6534,-58.6198,30.03,77,0,4.63,AR,1678058197
293,mayo,38.8876,-76.5119,14.97,42,0,2.57,US,1678058320
294,cooma,-36.2333,149.1333,20.64,52,15,4.95,AU,1678058374
295,belene,43.65,25.1167,4.87,60,76,6.32,BG,1678058374
296,preobrazheniye,42.9019,133.9064,1.65,87,22,2.93,RU,1678058375
297,lorengau,-2.0226,147.2712,27.95,74,75,2.27,PG,1678058227
298,kallithea,37.95,23.7,13.3,74,40,2.24,GR,1678058375
299,ponta do sol,32.6667,-17.1,20.35,86,73,3.32,PT,1678058376
300,beruwala,6.4788,79.9828,24.49,86,95,1.7,LK,1678058376
301,menongue,-14.6585,17.691,20.71,72,77,1.2,AO,1678058376
302,faya,18.3851,42.4509,16.06,49,38,2.43,SA,1678058256
303,hailar,49.2,119.7,-7.4,89,100,3.41,CN,1678058377
304,wiarton,44.7407,-81.1332,2.25,80,20,2.06,CA,1678058377
305,marquette,46.5333,-87.6335,2.69,81,87,1.79,US,1678058378
306,sabha,27.0377,14.4283,14.3,16,17,3.93,LY,1678058378
307,palmer,42.1584,-72.3287,5.08,68,40,2.57,US,1678058378
308,chipinge,-20.1883,32.6236,16.19,95,15,1.13,ZW,1678058379
309,randolph,35.7001,-79.8164,17.61,33,0,1.54,US,1678058379
310,gamba,-2.65,10.0,26.07,87,60,2.78,GA,1678058379
311,road town,18.4167,-64.6167,26.05,73,40,3.6,VG,1678058380
312,kupang,-10.1667,123.5833,26.32,100,40,1.54,ID,1678058215
313,longyearbyen,78.2186,15.6401,-14.09,51,40,5.66,SJ,1678058380
314,iqaluit,63.7506,-68.5145,-5.15,92,100,0.0,CA,1678058381
315,upata,8.0086,-62.3989,25.66,62,98,3.42,VE,1678058381
316,belogorsk,50.9158,128.4611,-4.0,97,97,3.15,RU,1678058381
317,cartagena,10.3997,-75.5144,26.79,78,40,7.2,CO,1678058163
318,launceston,-41.45,147.1667,16.8,72,75,8.75,AU,1678058382
319,contamana,-7.3333,-75.0167,25.26,83,83,1.46,PE,1678058382
320,ajaccio,42.0,8.9167,6.03,81,100,3.09,FR,1678058383
321,vilela,41.2251,-7.6034,3.8,97,100,0.92,PT,1678058383
322,hovd,48.0056,91.6419,-1.5,57,100,2.12,MN,1678058384
323,mayskiy,47.6931,40.1025,-2.33,50,7,1.41,RU,1678058384
324,the valley,18.217,-63.0578,25.92,73,40,3.6,AI,1678058384
325,mangrol,21.1167,70.1167,24.94,52,0,3.46,IN,1678058385
326,bairiki,1.3292,172.9752,30.0,70,40,4.63,KI,1678058092
327,cururupu,-1.8283,-44.8683,24.09,97,86,1.91,BR,1678058385
328,burns lake,54.2331,-125.7533,-9.32,72,47,2.5,CA,1678058385
329,kishtwar,33.3167,75.7667,5.41,59,2,2.59,IN,1678058386
330,nuristan,35.3,70.8333,-8.43,64,32,4.43,AF,1678058386
331,usinsk,65.9939,57.5281,-25.67,100,91,2.35,RU,1678058386
332,marmaris,36.855,28.2742,14.5,85,20,0.93,TR,1678058387
333,bengkulu,-3.8004,102.2655,23.31,90,27,1.73,ID,1678058387
334,kudahuvadhoo,2.6708,72.8944,26.83,77,91,4.49,MV,1678058387
335,victor harbor,-35.5667,138.6167,17.04,61,1,5.62,AU,1678058388
336,maningrida,-12.0667,134.2667,27.43,77,100,6.22,AU,1678058388
337,pacific grove,36.6177,-121.9166,12.45,61,40,5.66,US,1678058198
338,shakawe,-18.3667,21.85,21.08,79,86,1.22,BW,1678058389
339,cumana,10.4635,-64.1775,24.76,85,44,7.07,VE,1678058025
340,mahon,39.8885,4.2658,11.31,87,75,3.6,ES,1678058389
341,falun,60.6036,15.626,-5.03,92,94,2.3,SE,1678058142
342,namibe,-15.1961,12.1522,22.45,66,12,1.85,AO,1678058154
343,patan,27.6667,85.3333,13.89,88,20,1.03,NP,1678058390
344,chokurdakh,70.6333,147.9167,-45.22,100,62,0.54,RU,1678058390
345,san juan,-31.5375,-68.5364,34.08,26,25,8.46,AR,1678058200
346,tutoia,-2.7619,-42.2744,26.86,85,98,6.01,BR,1678058390
347,batagay,67.6333,134.6333,-24.48,100,100,0.75,RU,1678058391
348,banda aceh,5.5577,95.3222,24.4,77,0,4.54,ID,1678058391
349,kaitangata,-46.2817,169.8464,15.01,53,15,2.98,NZ,1678058393
350,kisangani,0.5167,25.2,23.86,63,40,0.7,CD,1678058393
351,yenotayevka,47.2456,47.0281,5.37,93,100,3.37,RU,1678058393
352,klaksvik,62.2266,-6.589,-1.49,72,100,13.92,FO,1678058394
353,paamiut,61.994,-49.6678,-1.22,70,28,4.45,GL,1678058394
354,kavaratti,10.5669,72.642,27.19,69,0,1.69,IN,1678058358
355,chizhou,30.6578,117.4831,11.87,52,0,1.35,CN,1678058395
356,sumenep,-7.0167,113.8667,24.42,90,100,0.7,ID,1678058395
357,soe,-9.8607,124.284,19.8,90,78,1.3,ID,1678058395
358,nea malgara,40.6094,22.6817,11.62,65,10,3.06,GR,1678058396
359,faxinal,-24.0003,-51.3194,18.51,96,4,1.0,BR,1678058396
360,nantucket,41.2835,-70.0995,5.03,76,100,2.57,US,1678058192
361,tilichiki,60.4667,166.1,-23.27,91,98,2.1,RU,1678058397
362,bratsk,56.1325,101.6142,-11.73,98,100,1.45,RU,1678058397
363,manggar,-2.8833,108.2667,24.6,89,93,3.65,ID,1678058397
364,boralday,43.3578,76.8594,5.92,70,100,3.0,KZ,1678058398
365,siedlce,52.1677,22.2901,-2.0,79,43,3.87,PL,1678058398
366,nishihara,26.1842,127.7558,17.6,52,20,3.09,JP,1678058398
367,kamloops,50.6665,-120.3192,5.32,47,75,2.57,CA,1678058399
368,khowst,33.3833,69.8833,12.53,54,28,1.15,AF,1678058399
369,adrar,20.5022,-10.0711,22.66,13,52,4.15,MR,1678058400
370,mae sai,20.4335,99.8762,17.37,60,0,0.36,TH,1678058400
371,san ramon de la nueva oran,-23.1322,-64.326,29.68,56,54,1.44,AR,1678058401
372,komsomolskiy,40.4272,71.7189,8.4,76,100,0.0,UZ,1678058192
373,byron bay,-28.65,153.6167,28.17,64,0,4.24,AU,1678058401
374,vila do maio,15.1333,-23.2167,23.44,74,99,6.72,CV,1678058402
375,salmas,38.1973,44.7653,7.85,62,70,2.96,IR,1678058403
376,bonthe,7.5264,-12.505,25.27,88,5,1.64,SL,1678058403
377,trapani,37.8333,12.6667,10.15,87,40,1.03,IT,1678058404
378,berlevag,70.8578,29.0864,-10.03,62,43,9.26,NO,1678058213
379,riachao das neves,-11.7461,-44.91,27.6,46,53,1.59,BR,1678058405
380,pisco,-13.7,-76.2167,25.03,73,0,2.06,PE,1678058406
381,okhotsk,59.3833,143.3,-23.13,85,78,2.97,RU,1678058406
382,hadsund,56.7148,10.1168,-3.02,53,12,2.85,DK,1678058407
383,campbell river,50.0163,-125.2446,7.21,65,75,1.54,CA,1678058407
384,amuntai,-2.4177,115.2494,22.59,98,100,0.28,ID,1678058408
385,suntar,62.1444,117.6319,-13.41,92,100,3.67,RU,1678058409
386,bambanglipuro,-7.95,110.2833,24.31,90,100,2.52,ID,1678058409
387,mehamn,71.0357,27.8492,-10.05,52,40,7.2,NO,1678058276
388,northport,33.229,-87.5772,23.83,37,0,1.54,US,1678058181
389,nanae,41.8833,140.6833,4.13,81,75,2.57,JP,1678058411
390,ostrovnoy,68.0531,39.5131,-11.4,84,100,3.02,RU,1678058411
391,inhambane,-23.865,35.3833,23.27,90,14,2.93,MZ,1678058412
392,rio cuarto,-33.1307,-64.3499,29.87,39,0,8.23,AR,1678058330
393,itarema,-2.9248,-39.9167,26.71,80,97,6.32,BR,1678058115
394,voh,-20.9667,164.7,27.61,73,81,2.29,NC,1678058413
395,karaikkudi,10.0667,78.7833,21.44,88,43,3.63,IN,1678058414
396,ugoofaaru,5.6667,73.0,27.15,80,100,6.24,MV,1678058415
397,terme,41.2092,36.9739,9.96,90,100,3.32,TR,1678058415
398,camacupa,-12.0167,17.4833,16.81,91,98,1.65,AO,1678058416
399,novaya lyalya,59.055,60.599,-3.64,97,100,2.36,RU,1678058417
400,baghdad,33.3406,44.4009,19.95,40,0,6.69,IQ,1678058417
401,ahipara,-35.1667,173.1667,20.55,56,62,5.48,NZ,1678058418
402,richards bay,-28.783,32.0377,23.6,84,0,5.52,ZA,1678058418
403,kavieng,-2.5744,150.7967,27.77,71,100,1.3,PG,1678058419
404,isangel,-19.55,169.2667,27.77,75,13,3.66,VU,1678058419
405,shache,38.4167,77.2406,8.08,39,3,2.01,CN,1678058420
406,botwood,49.1499,-55.3482,-5.61,93,100,2.72,CA,1678058421
407,umm lajj,25.0213,37.2685,26.43,55,50,2.66,SA,1678058422
408,chuy,-33.6971,-53.4616,20.15,81,0,3.47,UY,1678058423
409,eenhana,-17.4667,16.3333,23.95,28,16,1.47,NA,1678058423
410,oranjemund,-28.55,16.4333,17.47,95,27,0.77,NA,1678058424
411,jati,24.3539,68.2671,24.11,46,0,3.52,PK,1678058424
412,nepa nagar,21.4667,76.4,24.25,37,33,1.58,IN,1678058425
413,porto santo,33.072,-16.3415,19.21,77,20,3.6,PT,1678058426
414,aksarka,66.5606,67.7975,-30.5,100,95,1.47,RU,1678058426
415,choya,52.0108,86.5467,1.08,98,100,1.52,RU,1678058427
416,talcahuano,-36.7167,-73.1167,19.82,73,0,7.2,CL,1678058428
417,maniwaki,46.3834,-75.966,4.21,48,94,3.09,CA,1678058428
418,schwarzenbek,53.5,10.4833,0.92,94,100,1.85,DE,1678058429
419,tromso,69.6496,18.957,-5.9,79,75,3.09,NO,1678058430
420,kepno,51.2784,17.9891,-0.11,95,90,3.09,PL,1678058430
421,erenhot,43.6475,111.9767,1.39,25,25,2.69,CN,1678058356
422,opuwo,-18.0607,13.84,18.35,41,0,1.71,NA,1678058431
423,san policarpo,12.1791,125.5072,24.81,87,67,3.34,PH,1678058432
424,yokadouma,3.5167,15.05,25.83,43,83,0.87,CM,1678058433
425,cabra,37.4725,-4.4421,9.2,91,100,2.16,ES,1678058433
426,saint-georges,12.0564,-61.7485,26.82,69,20,9.26,GD,1678058434
427,arraial do cabo,-22.9661,-42.0278,25.17,82,82,9.99,BR,1678058435
428,mamlyutka,54.9375,68.5394,-5.06,91,92,7.35,KZ,1678058435
429,belyy yar,53.6039,91.3903,-6.06,89,75,2.0,RU,1678058436
430,krasnaya zarya,52.7825,37.6806,-7.02,95,30,4.1,RU,1678058437
431,itaituba,-4.2761,-55.9836,24.2,97,98,0.38,BR,1678058437
432,tabou,4.423,-7.3528,27.01,85,93,2.49,CI,1678058438
433,ulagan,50.6321,87.9563,-1.75,96,100,1.86,RU,1678058438
434,terney,45.0503,136.6092,2.82,67,32,2.56,RU,1678058439
435,ballia,25.7557,84.1503,19.35,40,0,3.93,IN,1678058439
436,viedma,-40.8135,-62.9967,31.9,17,0,4.54,AR,1678058440
437,bani walid,31.7566,13.9942,10.83,63,1,3.22,LY,1678058440
438,nome,64.5011,-165.4064,-0.47,100,100,9.77,US,1678058441
439,kolomna,55.0794,38.7783,-9.06,98,75,2.96,RU,1678058441
440,yablochnyy,47.1661,142.0661,2.31,94,35,8.27,RU,1678058442
441,bourail,-21.5667,165.4833,27.32,69,45,2.94,NC,1678058442
442,pionerskiy,54.9508,20.2275,-1.81,72,39,7.68,RU,1678058443
443,emba,48.8264,58.1442,0.05,91,88,6.78,KZ,1678058443
444,orlik,52.5178,99.825,-16.71,92,100,0.61,RU,1678058444
445,bogotol,56.2078,89.5342,-7.91,94,100,2.36,RU,1678058444
446,asyut,27.181,31.1837,21.46,27,60,5.55,EG,1678058444
447,tabas,33.5959,56.9244,17.71,25,3,0.38,IR,1678058445
448,port hedland,-20.3167,118.5667,30.03,84,75,3.6,AU,1678058445
449,buraydah,26.326,43.975,22.25,21,51,5.36,SA,1678058446
450,touros,-5.1989,-35.4608,26.92,76,100,5.73,BR,1678058446
451,pangoa,-12.1167,-73.0,21.48,100,100,0.21,PE,1678058446
452,chifeng,42.2683,118.9636,2.03,47,38,1.63,CN,1678058447
453,youkounkoun,12.5333,-13.1333,30.97,21,9,0.83,GN,1678058447
454,san joaquin,37.9333,-121.3011,13.63,48,75,6.17,US,1678058447
455,kitob,39.0843,66.8332,15.55,49,100,2.07,UZ,1678058448
456,noyabrsk,63.1994,75.4507,-14.53,96,97,4.14,RU,1678058448
457,yeniseysk,58.4497,92.1703,-11.86,97,100,1.95,RU,1678058449
458,bhainsa,26.9548,76.9012,19.82,40,1,1.57,IN,1678058449
459,bulungu,-4.55,18.6,22.97,86,96,1.06,CD,1678058449
460,sabang,5.8933,95.3214,27.53,70,0,8.99,ID,1678058450
461,portland,45.5234,-122.6762,7.96,79,100,4.12,US,1678058308
462,hofn,64.2539,-15.2082,-3.43,64,3,8.82,IS,1678058450
463,iranshahr,27.2025,60.6848,21.16,46,0,0.71,IR,1678058451
464,shahapur,19.45,73.3333,27.09,30,40,1.84,IN,1678058451
465,port macquarie,-31.4333,152.9167,27.72,65,7,4.85,AU,1678058172
466,malmesbury,-33.4608,18.7271,16.54,90,75,3.08,ZA,1678058451
467,hobyo,5.3505,48.5268,25.55,80,22,7.82,SO,1678058452
468,sao joao da barra,-21.6403,-41.0511,26.05,83,77,8.64,BR,1678058452
469,honiara,-9.4333,159.95,26.97,83,99,4.57,SB,1678058452
470,elat,29.5581,34.9482,22.91,40,62,2.06,IL,1678058453
471,vershino-darasunskiy,52.35,115.5167,-16.32,94,29,1.84,RU,1678058453
472,canelones,-34.6444,-56.2886,24.16,57,0,4.37,UY,1678058306
473,ikeda,34.8221,135.4298,6.84,70,0,3.09,JP,1678058454
474,bemidji,47.4736,-94.8803,3.09,49,40,2.57,US,1678058454
475,mahibadhoo,3.7833,72.9667,27.19,77,100,7.06,MV,1678058454
476,vieques,18.425,-65.8329,26.02,73,20,4.12,PR,1678058455
477,duma,34.7653,108.135,9.12,40,99,2.25,CN,1678058455
478,guiuan,11.0333,125.7247,25.63,84,88,5.85,PH,1678058455
479,san patricio,28.017,-97.5169,26.41,51,0,6.61,US,1678058456
480,yefremov,53.1481,38.0992,-6.81,95,54,4.17,RU,1678058456
481,kununurra,-15.7667,128.7333,27.99,78,61,2.06,AU,1678058457
482,santiago atitlan,14.6382,-91.229,25.06,71,33,2.03,GT,1678058457
483,pocone,-16.2567,-56.6228,25.23,84,85,1.39,BR,1678058372
484,kapit,2.0167,112.9333,22.58,100,100,0.48,MY,1678058457
485,grand gaube,-20.0064,57.6608,24.22,89,100,1.34,MU,1678058458
486,zavetnoye,47.1194,43.8903,5.08,90,91,3.18,RU,1678058458
487,ulaanbaatar,47.9077,106.8832,-9.93,85,5,1.0,MN,1678058458
488,belaya gora,68.5333,146.4167,-34.35,97,99,0.62,RU,1678058290
489,camocim,-2.9022,-40.8411,26.24,85,90,6.46,BR,1678058366
490,meadow lake,34.8014,-106.5436,18.6,7,97,9.2,US,1678058459
491,sechura,-5.5569,-80.8222,26.97,66,62,6.66,PE,1678058459
492,nanortalik,60.1432,-45.2371,0.47,78,20,2.95,GL,1678058460
493,zhumadian,32.9794,114.0294,11.97,47,24,2.67,CN,1678058461
494,tacoronte,28.4769,-16.4102,16.25,81,20,3.09,ES,1678058461
495,lev tolstoy,53.2134,39.446,-7.09,96,83,4.35,RU,1678058461
496,bayir,37.2687,28.2167,4.29,92,35,1.58,TR,1678058462
497,farafangana,-22.8167,47.8333,24.01,93,100,1.84,MG,1678058463
498,pula,44.8683,13.8481,5.31,81,20,2.57,HR,1678058463
499,yulara,-25.2406,130.9889,23.86,41,29,6.47,AU,1678058463
500,dingle,10.9995,122.6711,23.49,86,57,4.53,PH,1678058464
501,mmabatho,-25.85,25.6333,18.27,74,45,1.06,ZA,1678058465
502,fermo,43.1647,13.7233,9.36,81,7,1.96,IT,1678058368
503,atbasar,51.8,68.3333,-5.89,94,85,7.25,KZ,1678058465
504,sankt florian,48.2057,14.3784,3.1,69,75,1.54,AT,1678058467
505,vila velha,-20.3297,-40.2925,25.97,85,0,5.66,BR,1678058468
506,gorin,51.1983,136.6669,-5.71,92,65,2.0,RU,1678058468
507,veraval,20.9,70.3667,25.46,50,0,3.81,IN,1678058469
508,svetlyy,54.675,20.1347,-1.69,65,42,5.66,RU,1678058471
509,tongren,27.7172,109.1853,14.46,63,46,0.45,CN,1678058471
510,flin flon,54.7682,-101.865,-15.09,47,20,5.66,CA,1678058472
511,laguna,38.421,-121.4238,13.39,52,20,9.26,US,1678058259
512,le port,-20.9373,55.2919,25.7,90,100,1.24,RE,1678058473
513,monywa,22.1167,95.1333,21.65,35,0,0.86,MM,1678058473
514,vilcun,-38.65,-72.2333,17.41,63,0,2.55,CL,1678058474
515,agua dulce,18.1333,-94.1333,24.88,81,89,4.57,MX,1678058374
516,kruisfontein,-34.0033,24.7314,17.55,85,4,8.74,ZA,1678058475
517,paragominas,-2.9667,-47.4833,23.69,97,97,1.61,BR,1678058256
518,sheregesh,52.9209,87.9869,-1.75,98,100,3.44,RU,1678058476
519,novaya mayna,54.15,49.75,-4.67,90,99,6.34,RU,1678058476
520,lethem,3.3803,-59.7968,28.48,57,98,4.23,GY,1678058477
521,pucallpa,-8.3791,-74.5539,24.02,100,75,1.54,PE,1678058306
522,aripuana,-9.1667,-60.6333,24.42,93,65,0.99,BR,1678058478
523,birao,10.2849,22.7882,24.96,13,87,2.21,CF,1678058478
524,zabid,14.1951,43.3152,26.26,57,70,0.69,YE,1678058479
525,terpinnya,46.9697,35.4197,1.28,43,11,2.32,UA,1678058480
526,carroll,39.5501,-77.0164,13.62,41,0,1.54,US,1678058481
527,madhupur,24.25,86.65,21.44,30,2,3.83,IN,1678058481
528,sambava,-14.2667,50.1667,24.54,88,98,1.62,MG,1678058482
529,darnah,32.767,22.6367,13.76,74,0,8.27,LY,1678058482
530,makakilo city,21.3469,-158.0858,26.18,66,0,4.63,US,1678058483
531,matara,5.9485,80.5353,23.25,86,79,2.61,LK,1678058360
532,bandarbeyla,9.4942,50.8122,24.93,75,23,6.22,SO,1678058484
533,hami,42.8,93.45,6.03,34,4,1.04,CN,1678058485
534,tinguindin,19.75,-102.4833,26.37,20,100,3.69,MX,1678058485
535,puerto del rosario,28.5004,-13.8627,17.86,82,0,2.06,ES,1678058486
536,hualmay,-11.0964,-77.6139,23.76,75,100,3.22,PE,1678058487
537,bad essen,52.3167,8.3333,3.54,80,100,3.15,DE,1678058487
538,zhigansk,66.7697,123.3711,-20.56,98,100,1.99,RU,1678058488
539,hay river,60.8156,-115.7999,-20.02,59,40,2.57,CA,1678058488
540,meiktila,20.8667,95.8667,21.01,38,0,3.95,MM,1678058489
541,coesfeld,51.9333,7.15,4.77,76,100,2.79,DE,1678058489
542,aranos,-24.1333,19.1167,21.08,20,1,3.58,NA,1678058490
543,beringovskiy,63.05,179.3167,-21.37,87,76,0.6,RU,1678058491
544,bay roberts,47.5999,-53.2648,-2.64,80,86,2.86,CA,1678058491
545,villa del rosario,7.8339,-72.4742,29.21,62,40,2.06,CO,1678058492
546,cap malheureux,-19.9842,57.6142,24.15,89,100,1.34,MU,1678058493
547,wanaka,-44.7,169.15,13.51,58,3,1.26,NZ,1678058493
548,bakchar,57.0186,82.0711,-6.64,96,100,2.01,RU,1678058493
549,la palma,33.8464,-118.0467,15.43,76,75,5.14,US,1678058494
550,syracuse,37.0881,15.2792,7.65,72,0,3.32,IT,1678058378
551,wilmington,34.2257,-77.9447,15.53,59,0,3.09,US,1678058108
552,nagarote,12.2659,-86.5647,31.82,27,4,6.9,NI,1678058495
553,lubumbashi,-11.6609,27.4794,18.29,98,100,1.09,CD,1678058496
554,broome,42.2506,-75.833,4.27,80,100,4.12,US,1678058496
555,paciran,-6.8767,112.3761,24.9,86,100,3.51,ID,1678058497
556,matagami,49.7502,-77.6328,-2.94,59,0,4.12,CA,1678058497
557,mitsamiouli,-11.3847,43.2844,27.55,74,100,5.34,KM,1678058498
558,omboue,-1.5746,9.2618,26.56,86,68,2.59,GA,1678058498
559,valparaiso,-33.0393,-71.6273,20.0,82,100,4.12,CL,1678058498
560,teguise,29.0605,-13.564,16.12,82,20,2.57,ES,1678058500
561,oistins,13.0667,-59.5333,25.05,78,40,5.66,BB,1678058501
562,prince rupert,54.3161,-130.3201,5.05,30,0,3.09,CA,1678058501
563,chingirlau,51.095,54.0814,-4.29,87,68,4.6,KZ,1678058501
564,nakhon thai,17.1006,100.8374,21.17,63,0,1.29,TH,1678058502
565,tezu,27.9167,96.1667,20.73,40,64,1.41,IN,1678058502
566,alihe,50.5667,123.7167,-6.66,65,16,4.3,CN,1678058503
567,gorontalo,0.5412,123.0595,24.36,93,100,1.69,ID,1678058503
568,evensk,61.95,159.2333,-25.66,82,17,3.03,RU,1678058503
569,qeshm,26.9581,56.2719,21.94,74,0,1.85,IR,1678058504
570,amahai,-3.3333,128.9167,26.75,77,95,2.64,ID,1678058504
571,harnosand,62.6323,17.9379,-6.0,83,100,5.5,SE,1678058505
572,gouyave,12.1646,-61.7296,26.43,69,20,9.26,GD,1678058505
573,galdar,28.147,-15.6502,17.28,80,34,2.71,ES,1678058505
574,amapa,1.0,-52.0,23.35,98,97,1.82,BR,1678058506
575,antofagasta,-23.65,-70.4,21.6,83,14,2.05,CL,1678058506
576,athmallik,20.7219,84.5348,21.59,26,0,0.37,IN,1678058506
577,sumbe,-11.2061,13.8437,23.96,85,69,3.07,AO,1678058507
578,qaqortoq,60.7167,-46.0333,-0.54,72,12,4.5,GL,1678058507
579,la ronge,55.1001,-105.2842,-16.86,46,40,4.63,CA,1678058508
580,margate,51.3813,1.3862,3.16,72,100,0.89,GB,1678058508
581,shaunavon,49.6501,-108.4181,-11.12,92,100,4.87,CA,1678058508
582,umuarama,-23.7664,-53.325,22.45,85,2,1.76,BR,1678058292
583,kerrville,30.0474,-99.1403,26.97,37,0,6.17,US,1678058216
584,manta,-0.95,-80.7333,27.88,78,75,2.57,EC,1678058292
585,brainerd,46.358,-94.2008,4.14,41,100,3.09,US,1678058509
586,mackenzie,55.2999,-123.1698,-13.88,43,0,7.2,CA,1678058510
587,kalach-na-donu,48.691,43.5264,0.53,66,6,1.04,RU,1678058510
588,kalininsk,51.5,44.4758,-6.49,91,17,4.47,RU,1678058468
589,sinnamary,5.3833,-52.95,24.94,87,81,5.67,GF,1678058510
590,bhandara,21.1667,79.65,22.58,27,11,1.91,IN,1678058511
